{
"type": "FeatureCollection",
"crs": { "type": "name", "properties": { "name": "urn:ogc:def:crs:OGC:1.3:CRS84" } },
                                                                                
"features": [
{ "type": "Feature", "properties": { "FCsubtype": 1, "inspireId": "_EG.EGM.RestC:3ae3b6c2-7675-4454-afff-ada5d446f187", "beginLifes": "2015\/10\/26", "F_CODE": "AQ135", "ICC": "DE", "AFA": 9, "NAMN1": "Wunnenstein\/West", "NAMN2": "N_A", "NAMA1": "Wunnenstein\/West", "NAMA2": "N_A", "NLN1": "GER", "NLN2": "N_A" }, "geometry": { "type": "Point", "coordinates": [ 9.264442499999801, 49.045449999999839 ] } },
{ "type": "Feature", "properties": { "FCsubtype": 1, "inspireId": "_EG.EGM.RestC:8bf62c03-20ea-4f54-b49b-8fb9c50080ad", "beginLifes": "2015\/10\/26", "F_CODE": "AQ135", "ICC": "DE", "AFA": 9, "NAMN1": "Ob der Tauber\/Ost", "NAMN2": "N_A", "NAMA1": "Ob der Tauber\/Ost", "NAMA2": "N_A", "NLN1": "GER", "NLN2": "N_A" }, "geometry": { "type": "Point", "coordinates": [ 9.728898999999785, 49.622474999999838 ] } },
{ "type": "Feature", "properties": { "FCsubtype": 1, "inspireId": "_EG.EGM.RestC:461cdc36-dcfb-4da8-b41c-9f332446affe", "beginLifes": "2015\/10\/26", "F_CODE": "AQ135", "ICC": "DE", "AFA": 9, "NAMN1": "Spessart\/Süd", "NAMN2": "N_A", "NAMA1": "Spessart\/Sued", "NAMA2": "N_A", "NLN1": "GER", "NLN2": "N_A" }, "geometry": { "type": "Point", "coordinates": [ 9.395220999999793, 49.897393999999849 ] } },
{ "type": "Feature", "properties": { "FCsubtype": 1, "inspireId": "_EG.EGM.RestC:c8bb3c37-3651-4f74-85de-06e3a7be57c1", "beginLifes": "2015\/10\/26", "F_CODE": "AQ135", "ICC": "DE", "AFA": 9, "NAMN1": "Katzenfurt", "NAMN2": "N_A", "NAMA1": "Katzenfurt", "NAMA2": "N_A", "NLN1": "GER", "NLN2": "N_A" }, "geometry": { "type": "Point", "coordinates": [ 8.362066999999797, 50.621830499999845 ] } },
{ "type": "Feature", "properties": { "FCsubtype": 1, "inspireId": "_EG.EGM.RestC:5642461b-145a-4377-ad87-04e7472c8a4e", "beginLifes": "2015\/10\/26", "F_CODE": "AQ135", "ICC": "DE", "AFA": 9, "NAMN1": "Reinhardshain\/Süd", "NAMN2": "N_A", "NAMA1": "Reinhardshain\/Sued", "NAMA2": "N_A", "NLN1": "GER", "NLN2": "N_A" }, "geometry": { "type": "Point", "coordinates": [ 8.895270999999779, 50.622881999999834 ] } },
{ "type": "Feature", "properties": { "FCsubtype": 1, "inspireId": "_EG.EGM.RestC:c4bae1c5-a357-4e3c-8d69-83f07fc0df07", "beginLifes": "2015\/10\/26", "F_CODE": "AQ135", "ICC": "DE", "AFA": 9, "NAMN1": "Remscheid\/Ost", "NAMN2": "N_A", "NAMA1": "Remscheid\/Ost", "NAMA2": "N_A", "NLN1": "GER", "NLN2": "N_A" }, "geometry": { "type": "Point", "coordinates": [ 7.227431499999795, 51.157945999999832 ] } },
{ "type": "Feature", "properties": { "FCsubtype": 1, "inspireId": "_EG.EGM.RestC:aae4b71c-399d-48ff-b18c-e024f483ef5a", "beginLifes": "2015\/10\/26", "F_CODE": "AQ135", "ICC": "DE", "AFA": 9, "NAMN1": "Avus\/Ost", "NAMN2": "N_A", "NAMA1": "Avus\/Ost", "NAMA2": "N_A", "NLN1": "GER", "NLN2": "N_A" }, "geometry": { "type": "Point", "coordinates": [ 13.272462999999789, 52.500852499999837 ] } }
]
}
